09:33:39 connected:T armed:F guided:T mode:AUTO.LOITER;lat: 40.9962203755 lon: 29.065998866;x: 0.0 y: -0.02 z: 0.02;0.04;1.00;roll: -0.000472840241855 pitch: 0.000221150286961 yaw: -0.00126029911917;heading:-51.5396496836;circle_lat: 37 circle_lon: 37;ph:7;ec:1400;orp:100;do:20;temp:25;
09:33:39 connected:T armed:F guided:T mode:AUTO.LOITER;lat: 40.9962198009 lon: 29.0659991804;x: 0.0 y: -0.02 z: 0.02;0.04;1.00;roll: -0.000472840241855 pitch: 0.000221150286961 yaw: -0.00126029911917;heading:-38.3483387761;circle_lat: 37 circle_lon: 37;ph:7;ec:1400;orp:100;do:20;temp:25;
09:33:39 connected:T armed:F guided:T mode:AUTO.LOITER;lat: 40.9962192801 lon: 29.0660011449;x: 0.0 y: -0.02 z: 0.02;0.04;1.00;roll: -0.000472840241855 pitch: 0.000221150286961 yaw: -0.00126029911917;heading:-26.55633001;circle_lat: 37 circle_lon: 37;ph:7;ec:1400;orp:100;do:20;temp:25;
09:33:39 connected:T armed:F guided:T mode:AUTO.LOITER;lat: 40.9962196721 lon: 29.0660028534;x: 0.0 y: -0.02 z: 0.02;0.04;1.00;roll: -0.000472840241855 pitch: 0.000221150286961 yaw: -0.00126029911917;heading:-30.5217849512;circle_lat: 37 circle_lon: 37;ph:7;ec:1400;orp:100;do:20;temp:25;
09:33:39 connected:T armed:F guided:T mode:AUTO.LOITER;lat: 40.9962173231 lon: 29.0660031257;x: 0.0 y: -0.02 z: 0.02;0.04;1.00;roll: -0.000472840241855 pitch: 0.000221150286961 yaw: -0.00126029911917;heading:-34.045036346;circle_lat: 37 circle_lon: 37;ph:7;ec:1400;orp:100;do:20;temp:25;
09:33:39 connected:T armed:F guided:T mode:AUTO.LOITER;lat: 40.9962178455 lon: 29.0660040072;x: 0.0 y: -0.02 z: 0.02;0.04;1.00;roll: -0.000472840241855 pitch: 0.000221150286961 yaw: -0.00126029911917;heading:-29.8691988589;circle_lat: 37 circle_lon: 37;ph:7;ec:1400;orp:100;do:20;temp:25;
09:33:39 connected:T armed:F guided:T mode:AUTO.LOITER;lat: 40.9962160939 lon: 29.0660054541;x: 0.0 y: -0.02 z: 0.02;0.04;1.00;roll: -0.000472840241855 pitch: 0.000221150286961 yaw: -0.00126029911917;heading:-41.6064262365;circle_lat: 37 circle_lon: 37;ph:7;ec:1400;orp:100;do:20;temp:25;
09:33:39 connected:T armed:F guided:T mode:AUTO.LOITER;lat: 40.9962173442 lon: 29.0660050148;x: 0.0 y: -0.02 z: 0.02;0.04;1.00;roll: -0.000472840241855 pitch: 0.000221150286961 yaw: -0.00126029911917;heading:-40.795261451;circle_lat: 37 circle_lon: 37;ph:7;ec:1400;orp:100;do:20;temp:25;
09:33:39 connected:T armed:F guided:T mode:AUTO.LOITER;lat: 40.9962151078 lon: 29.0660055125;x: 0.0 y: -0.02 z: 0.02;0.04;1.00;roll: -0.000472840241855 pitch: 0.000221150286961 yaw: -0.00126029911917;heading:-34.1568132646;circle_lat: 37 circle_lon: 37;ph:7;ec:1400;orp:100;do:20;temp:25;
09:33:39 connected:T armed:F guided:T mode:AUTO.LOITER;lat: 40.9962150751 lon: 29.0660067768;x: 0.0 y: -0.02 z: 0.02;0.04;1.00;roll: -0.000472840241855 pitch: 0.000221150286961 yaw: -0.00126029911917;heading:-34.6401954621;circle_lat: 37 circle_lon: 37;ph:7;ec:1400;orp:100;do:20;temp:25;
09:33:39 connected:T armed:F guided:T mode:AUTO.LOITER;lat: 40.9962145198 lon: 29.0660087361;x: 0.0 y: -0.02 z: 0.02;0.04;1.00;roll: -0.000472840241855 pitch: 0.000221150286961 yaw: -0.00126029911917;heading:-35.8351956651;circle_lat: 37 circle_lon: 37;ph:7;ec:1400;orp:100;do:20;temp:25;
09:33:39 connected:T armed:F guided:T mode:AUTO.LOITER;lat: 40.9962148172 lon: 29.0660083318;x: 0.0 y: -0.02 z: 0.02;0.04;1.00;roll: -0.000472840241855 pitch: 0.000221150286961 yaw: -0.00126029911917;heading:-32.3328549109;circle_lat: 37 circle_lon: 37;ph:7;ec:1400;orp:100;do:20;temp:25;
09:33:39 connected:T armed:F guided:T mode:AUTO.LOITER;lat: 40.99621367 lon: 29.0660104624;x: 0.0 y: -0.02 z: 0.02;0.04;1.00;roll: -0.000472840241855 pitch: 0.000221150286961 yaw: -0.00126029911917;heading:-36.2611066748;circle_lat: 37 circle_lon: 37;ph:7;ec:1400;orp:100;do:20;temp:25;
09:33:39 connected:T armed:F guided:T mode:AUTO.LOITER;lat: 40.996213734 lon: 29.0660117755;x: 0.0 y: -0.02 z: 0.02;0.04;1.00;roll: -0.000472840241855 pitch: 0.000221150286961 yaw: -0.00126029911917;heading:-39.9477782379;circle_lat: 37 circle_lon: 37;ph:7;ec:1400;orp:100;do:20;temp:25;
09:33:39 connected:T armed:F guided:T mode:AUTO.LOITER;lat: 40.9962128312 lon: 29.0660126742;x: 0.0 y: -0.02 z: 0.02;0.04;1.00;roll: -0.000472840241855 pitch: 0.000221150286961 yaw: -0.00126029911917;heading:-48.9510980488;circle_lat: 37 circle_lon: 37;ph:7;ec:1400;orp:100;do:20;temp:25;
09:33:39 connected:T armed:F guided:T mode:AUTO.LOITER;lat: 40.9962123053 lon: 29.066012217;x: 0.0 y: -0.02 z: 0.02;0.04;1.00;roll: -0.000472840241855 pitch: 0.000221150286961 yaw: -0.00126029911917;heading:-50.383702703;circle_lat: 37 circle_lon: 37;ph:7;ec:1400;orp:100;do:20;temp:25;
09:33:39 connected:T armed:F guided:T mode:AUTO.LOITER;lat: 40.9962110285 lon: 29.0660135258;x: 0.0 y: -0.02 z: 0.02;0.04;1.00;roll: -0.000472840241855 pitch: 0.000221150286961 yaw: -0.00126029911917;heading:-45.3569740067;circle_lat: 37 circle_lon: 37;ph:7;ec:1400;orp:100;do:20;temp:25;
09:33:39 connected:T armed:F guided:T mode:AUTO.LOITER;lat: 40.996210336 lon: 29.0660147999;x: 0.0 y: -0.02 z: 0.02;0.04;1.00;roll: -0.000472840241855 pitch: 0.000221150286961 yaw: -0.00126029911917;heading:-52.3231377664;circle_lat: 37 circle_lon: 37;ph:7;ec:1400;orp:100;do:20;temp:25;
09:33:39 connected:T armed:F guided:T mode:AUTO.LOITER;lat: 40.9962102562 lon: 29.0660133912;x: 0.0 y: -0.02 z: 0.02;0.04;1.00;roll: -0.000472840241855 pitch: 0.000221150286961 yaw: -0.00126029911917;heading:-59.0146710275;circle_lat: 37 circle_lon: 37;ph:7;ec:1400;orp:100;do:20;temp:25;
09:33:39 connected:T armed:F guided:T mode:AUTO.LOITER;lat: 40.9962089281 lon: 29.0660159603;x: 0.0 y: -0.02 z: 0.02;0.04;1.00;roll: -0.000472840241855 pitch: 0.000221150286961 yaw: -0.00126029911917;heading:-52.1962710216;circle_lat: 37 circle_lon: 37;ph:7;ec:1400;orp:100;do:20;temp:25;
09:33:39 connected:T armed:F guided:T mode:AUTO.LOITER;lat: 40.9962085061 lon: 29.0660167817;x: 0.0 y: -0.02 z: 0.02;0.04;1.00;roll: -0.000472840241855 pitch: 0.000221150286961 yaw: -0.00126029911917;heading:-50.801686319;circle_lat: 37 circle_lon: 37;ph:7;ec:1400;orp:100;do:20;temp:25;
09:33:39 connected:T armed:F guided:T mode:AUTO.LOITER;lat: 40.9962072264 lon: 29.0660173976;x: 0.0 y: -0.02 z: 0.02;0.04;1.00;roll: -0.000472840241855 pitch: 0.000221150286961 yaw: -0.00126029911917;heading:-41.5512964243;circle_lat: 37 circle_lon: 37;ph:7;ec:1400;orp:100;do:20;temp:25;
09:33:39 connected:T armed:F guided:T mode:AUTO.LOITER;lat: 40.9962069698 lon: 29.0660181224;x: 0.0 y: -0.02 z: 0.02;0.04;1.00;roll: -0.000472840241855 pitch: 0.000221150286961 yaw: -0.00126029911917;heading:-40.2105375488;circle_lat: 37 circle_lon: 37;ph:7;ec:1400;orp:100;do:20;temp:25;
09:33:39 connected:T armed:F guided:T mode:AUTO.LOITER;lat: 40.9962062111 lon: 29.0660198172;x: 0.0 y: -0.02 z: 0.02;0.04;1.00;roll: -0.000472840241855 pitch: 0.000221150286961 yaw: -0.00126029911917;heading:-43.0226576609;circle_lat: 37 circle_lon: 37;ph:7;ec:1400;orp:100;do:20;temp:25;
09:33:39 connected:T armed:F guided:T mode:AUTO.LOITER;lat: 40.9962062165 lon: 29.0660193356;x: 0.0 y: -0.02 z: 0.02;0.04;1.00;roll: -0.000472840241855 pitch: 0.000221150286961 yaw: -0.00126029911917;heading:-48.2756565796;circle_lat: 37 circle_lon: 37;ph:7;ec:1400;orp:100;do:20;temp:25;
09:33:39 connected:T armed:F guided:T mode:AUTO.LOITER;lat: 40.9962048171 lon: 29.0660204929;x: 0.0 y: -0.02 z: 0.02;0.04;1.00;roll: -0.000472840241855 pitch: 0.000221150286961 yaw: -0.00126029911917;heading:-47.87266485;circle_lat: 37 circle_lon: 37;ph:7;ec:1400;orp:100;do:20;temp:25;
09:33:39 connected:T armed:F guided:T mode:AUTO.LOITER;lat: 40.9962040943 lon: 29.0660206741;x: 0.0 y: -0.02 z: 0.02;0.04;1.00;roll: -0.000472840241855 pitch: 0.000221150286961 yaw: -0.00126029911917;heading:-45.7260238701;circle_lat: 37 circle_lon: 37;ph:7;ec:1400;orp:100;do:20;temp:25;
09:33:39 connected:T armed:F guided:T mode:AUTO.LOITER;lat: 40.9962042053 lon: 29.0660224088;x: 0.0 y: -0.02 z: 0.02;0.04;1.00;roll: -0.000472840241855 pitch: 0.000221150286961 yaw: -0.00126029911917;heading:-53.7546559488;circle_lat: 37 circle_lon: 37;ph:7;ec:1400;orp:100;do:20;temp:25;
09:33:39 connected:T armed:F guided:T mode:AUTO.LOITER;lat: 40.9962029114 lon: 29.0660235351;x: 0.0 y: -0.02 z: 0.02;0.04;1.00;roll: -0.000472840241855 pitch: 0.000221150286961 yaw: -0.00126029911917;heading:-64.612205038;circle_lat: 37 circle_lon: 37;ph:7;ec:1400;orp:100;do:20;temp:25;
09:33:39 connected:T armed:F guided:T mode:AUTO.LOITER;lat: 40.9962024176 lon: 29.0660237883;x: 0.0 y: -0.02 z: 0.02;0.04;1.00;roll: -0.000472840241855 pitch: 0.000221150286961 yaw: -0.00126029911917;heading:-65.6333236248;circle_lat: 37 circle_lon: 37;ph:7;ec:1400;orp:100;do:20;temp:25;
09:33:39 connected:T armed:F guided:T mode:AUTO.LOITER;lat: 40.9962017908 lon: 29.0660232937;x: 0.0 y: -0.02 z: 0.02;0.04;1.00;roll: -0.000472840241855 pitch: 0.000221150286961 yaw: -0.00126029911917;heading:-65.5581864705;circle_lat: 37 circle_lon: 37;ph:7;ec:1400;orp:100;do:20;temp:25;
09:33:39 connected:T armed:F guided:T mode:AUTO.LOITER;lat: 40.9962003473 lon: 29.0660231621;x: 0.0 y: -0.02 z: 0.02;0.04;1.00;roll: -0.000472840241855 pitch: 0.000221150286961 yaw: -0.00126029911917;heading:-61.4959251029;circle_lat: 37 circle_lon: 37;ph:7;ec:1400;orp:100;do:20;temp:25;
09:33:39 connected:T armed:F guided:T mode:AUTO.LOITER;lat: 40.9961992674 lon: 29.0660234409;x: 0.0 y: -0.02 z: 0.02;0.04;1.00;roll: -0.000472840241855 pitch: 0.000221150286961 yaw: -0.00126029911917;heading:-51.0841998466;circle_lat: 37 circle_lon: 37;ph:7;ec:1400;orp:100;do:20;temp:25;
09:33:39 connected:T armed:F guided:T mode:AUTO.LOITER;lat: 40.996199682 lon: 29.0660250124;x: 0.0 y: -0.02 z: 0.02;0.04;1.00;roll: -0.000472840241855 pitch: 0.000221150286961 yaw: -0.00126029911917;heading:-42.5275575405;circle_lat: 37 circle_lon: 37;ph:7;ec:1400;orp:100;do:20;temp:25;
09:33:39 connected:T armed:F guided:T mode:AUTO.LOITER;lat: 40.9961987726 lon: 29.0660262432;x: 0.0 y: -0.02 z: 0.02;0.04;1.00;roll: -0.000472840241855 pitch: 0.000221150286961 yaw: -0.00126029911917;heading:-34.5430920216;circle_lat: 37 circle_lon: 37;ph:7;ec:1400;orp:100;do:20;temp:25;
09:33:39 connected:T armed:F guided:T mode:AUTO.LOITER;lat: 40.9961989295 lon: 29.066026391;x: 0.0 y: -0.02 z: 0.02;0.04;1.00;roll: -0.000472840241855 pitch: 0.000221150286961 yaw: -0.00126029911917;heading:-28.7741101051;circle_lat: 37 circle_lon: 37;ph:7;ec:1400;orp:100;do:20;temp:25;
09:33:39 connected:T armed:F guided:T mode:AUTO.LOITER;lat: 40.9961987567 lon: 29.0660277639;x: 0.0 y: -0.02 z: 0.02;0.04;1.00;roll: -0.000472840241855 pitch: 0.000221150286961 yaw: -0.00126029911917;heading:-28.8916343433;circle_lat: 37 circle_lon: 37;ph:7;ec:1400;orp:100;do:20;temp:25;
09:33:39 connected:T armed:F guided:T mode:AUTO.LOITER;lat: 40.9961982707 lon: 29.0660290627;x: 0.0 y: -0.02 z: 0.02;0.04;1.00;roll: -0.000472840241855 pitch: 0.000221150286961 yaw: -0.00126029911917;heading:-26.2396323111;circle_lat: 37 circle_lon: 37;ph:7;ec:1400;orp:100;do:20;temp:25;
09:33:39 connected:T armed:F guided:T mode:AUTO.LOITER;lat: 40.9961971217 lon: 29.0660314061;x: 0.0 y: -0.02 z: 0.02;0.04;1.00;roll: -0.000472840241855 pitch: 0.000221150286961 yaw: -0.00126029911917;heading:-20.6279751973;circle_lat: 37 circle_lon: 37;ph:7;ec:1400;orp:100;do:20;temp:25;
09:33:39 connected:T armed:F guided:T mode:AUTO.LOITER;lat: 40.9961976005 lon: 29.0660329252;x: 0.0 y: -0.02 z: 0.02;0.04;1.00;roll: -0.000472840241855 pitch: 0.000221150286961 yaw: -0.00126029911917;heading:-16.9907430333;circle_lat: 37 circle_lon: 37;ph:7;ec:1400;orp:100;do:20;temp:25;
09:33:39 connected:T armed:F guided:T mode:AUTO.LOITER;lat: 40.9961960252 lon: 29.0660339682;x: 0.0 y: -0.02 z: 0.02;0.04;1.00;roll: -0.000472840241855 pitch: 0.000221150286961 yaw: -0.00126029911917;heading:-13.7463413342;circle_lat: 37 circle_lon: 37;ph:7;ec:1400;orp:100;do:20;temp:25;
09:33:39 connected:T armed:F guided:T mode:AUTO.LOITER;lat: 40.9961960672 lon: 29.0660343826;x: 0.0 y: -0.02 z: 0.02;0.04;1.00;roll: -0.000472840241855 pitch: 0.000221150286961 yaw: -0.00126029911917;heading:-11.8587889397;circle_lat: 37 circle_lon: 37;ph:7;ec:1400;orp:100;do:20;temp:25;
09:33:39 connected:T armed:F guided:T mode:AUTO.LOITER;lat: 40.9961968234 lon: 29.0660338703;x: 0.0 y: -0.02 z: 0.02;0.04;1.00;roll: -0.000472840241855 pitch: 0.000221150286961 yaw: -0.00126029911917;heading:-12.037377279;circle_lat: 37 circle_lon: 37;ph:7;ec:1400;orp:100;do:20;temp:25;
09:33:39 connected:T armed:F guided:T mode:AUTO.LOITER;lat: 40.9961958068 lon: 29.0660369339;x: 0.0 y: -0.02 z: 0.02;0.04;1.00;roll: -0.000472840241855 pitch: 0.000221150286961 yaw: -0.00126029911917;heading:-10.8727807934;circle_lat: 37 circle_lon: 37;ph:7;ec:1400;orp:100;do:20;temp:25;
09:33:39 connected:T armed:F guided:T mode:AUTO.LOITER;lat: 40.9961959108 lon: 29.0660366027;x: 0.0 y: -0.02 z: 0.02;0.04;1.00;roll: -0.000472840241855 pitch: 0.000221150286961 yaw: -0.00126029911917;heading:-8.61461982862;circle_lat: 37 circle_lon: 37;ph:7;ec:1400;orp:100;do:20;temp:25;
09:33:39 connected:T armed:F guided:T mode:AUTO.LOITER;lat: 40.9961957694 lon: 29.0660383587;x: 0.0 y: -0.02 z: 0.02;0.04;1.00;roll: -0.000472840241855 pitch: 0.000221150286961 yaw: -0.00126029911917;heading:-6.29478016854;circle_lat: 37 circle_lon: 37;ph:7;ec:1400;orp:100;do:20;temp:25;
09:33:39 connected:T armed:F guided:T mode:AUTO.LOITER;lat: 40.9961959919 lon: 29.0660392326;x: 0.0 y: -0.02 z: 0.02;0.04;1.00;roll: -0.000472840241855 pitch: 0.000221150286961 yaw: -0.00126029911917;heading:-5.1675608861;circle_lat: 37 circle_lon: 37;ph:7;ec:1400;orp:100;do:20;temp:25;
09:33:39 connected:T armed:F guided:T mode:AUTO.LOITER;lat: 40.9961954023 lon: 29.0660419257;x: 0.0 y: -0.02 z: 0.02;0.04;1.00;roll: -0.000472840241855 pitch: 0.000221150286961 yaw: -0.00126029911917;heading:-5.36064407722;circle_lat: 37 circle_lon: 37;ph:7;ec:1400;orp:100;do:20;temp:25;
09:33:39 connected:T armed:F guided:T mode:AUTO.LOITER;lat: 40.9961950602 lon: 29.0660425304;x: 0.0 y: -0.02 z: 0.02;0.04;1.00;roll: -0.000472840241855 pitch: 0.000221150286961 yaw: -0.00126029911917;heading:-5.5518207784;circle_lat: 37 circle_lon: 37;ph:7;ec:1400;orp:100;do:20;temp:25;
09:33:39 connected:T armed:F guided:T mode:AUTO.LOITER;lat: 40.996196263 lon: 29.066043629;x: 0.0 y: -0.02 z: 0.02;0.04;1.00;roll: -0.000472840241855 pitch: 0.000221150286961 yaw: -0.00126029911917;heading:-5.74413166158;circle_lat: 37 circle_lon: 37;ph:7;ec:1400;orp:100;do:20;temp:25;
09:33:39 connected:T armed:F guided:T mode:AUTO.LOITER;lat: 40.9961965541 lon: 29.0660441639;x: 0.0 y: -0.02 z: 0.02;0.04;1.00;roll: -0.000472840241855 pitch: 0.000221150286961 yaw: -0.00126029911917;heading:-5.93577297596;circle_lat: 37 circle_lon: 37;ph:7;ec:1400;orp:100;do:20;temp:25;
09:33:39 connected:T armed:F guided:T mode:AUTO.LOITER;lat: 40.9961963116 lon: 29.0660453883;x: 0.0 y: -0.02 z: 0.02;0.04;1.00;roll: -0.000472840241855 pitch: 0.000221150286961 yaw: -0.00126029911917;heading:-6.12626220834;circle_lat: 37 circle_lon: 37;ph:7;ec:1400;orp:100;do:20;temp:25;
09:33:39 connected:T armed:F guided:T mode:AUTO.LOITER;lat: 40.9961955536 lon: 29.0660469907;x: 0.0 y: -0.02 z: 0.02;0.04;1.00;roll: -0.000472840241855 pitch: 0.000221150286961 yaw: -0.00126029911917;heading:-7.2294789947;circle_lat: 37 circle_lon: 37;ph:7;ec:1400;orp:100;do:20;temp:25;
09:33:39 connected:T armed:F guided:T mode:AUTO.LOITER;lat: 40.9961957448 lon: 29.0660481542;x: 0.0 y: -0.02 z: 0.02;0.04;1.00;roll: -0.000472840241855 pitch: 0.000221150286961 yaw: -0.00126029911917;heading:-7.16917072366;circle_lat: 37 circle_lon: 37;ph:7;ec:1400;orp:100;do:20;temp:25;
09:33:39 connected:T armed:F guided:T mode:AUTO.LOITER;lat: 40.9961954024 lon: 29.0660494666;x: 0.0 y: -0.02 z: 0.02;0.04;1.00;roll: -0.000472840241855 pitch: 0.000221150286961 yaw: -0.00126029911917;heading:-6.86428659749;circle_lat: 37 circle_lon: 37;ph:7;ec:1400;orp:100;do:20;temp:25;
09:33:39 connected:T armed:F guided:T mode:AUTO.LOITER;lat: 40.9961946878 lon: 29.0660500917;x: 0.0 y: -0.02 z: 0.02;0.04;1.00;roll: -0.000472840241855 pitch: 0.000221150286961 yaw: -0.00126029911917;heading:-7.06060178202;circle_lat: 37 circle_lon: 37;ph:7;ec:1400;orp:100;do:20;temp:25;
09:33:39 connected:T armed:F guided:T mode:AUTO.LOITER;lat: 40.9961947143 lon: 29.0660516406;x: 0.0 y: -0.02 z: 0.02;0.04;1.00;roll: -0.000472840241855 pitch: 0.000221150286961 yaw: -0.00126029911917;heading:-7.24988758011;circle_lat: 37 circle_lon: 37;ph:7;ec:1400;orp:100;do:20;temp:25;
09:33:39 connected:T armed:F guided:T mode:AUTO.LOITER;lat: 40.9961955948 lon: 29.0660522249;x: 0.0 y: -0.02 z: 0.02;0.04;1.00;roll: -0.000472840241855 pitch: 0.000221150286961 yaw: -0.00126029911917;heading:-6.48276045053;circle_lat: 37 circle_lon: 37;ph:7;ec:1400;orp:100;do:20;temp:25;
09:33:39 connected:T armed:F guided:T mode:AUTO.LOITER;lat: 40.9961947373 lon: 29.0660538963;x: 0.0 y: -0.02 z: 0.02;0.04;1.00;roll: -0.000472840241855 pitch: 0.000221150286961 yaw: -0.00126029911917;heading:-5.32231200118;circle_lat: 37 circle_lon: 37;ph:7;ec:1400;orp:100;do:20;temp:25;
09:33:39 connected:T armed:F guided:T mode:AUTO.LOITER;lat: 40.9961944068 lon: 29.0660550083;x: 0.0 y: -0.02 z: 0.02;0.04;1.00;roll: -0.000472840241855 pitch: 0.000221150286961 yaw: -0.00126029911917;heading:-5.08386203645;circle_lat: 37 circle_lon: 37;ph:7;ec:1400;orp:100;do:20;temp:25;
09:33:39 connected:T armed:F guided:T mode:AUTO.LOITER;lat: 40.9961944897 lon: 29.0660568867;x: 0.0 y: -0.02 z: 0.02;0.04;1.00;roll: -0.000472840241855 pitch: 0.000221150286961 yaw: -0.00126029911917;heading:-4.45468957991;circle_lat: 37 circle_lon: 37;ph:7;ec:1400;orp:100;do:20;temp:25;
09:33:39 connected:T armed:F guided:T mode:AUTO.LOITER;lat: 40.9961947129 lon: 29.0660567912;x: 0.0 y: -0.02 z: 0.02;0.04;1.00;roll: -0.000472840241855 pitch: 0.000221150286961 yaw: -0.00126029911917;heading:-4.26466504518;circle_lat: 37 circle_lon: 37;ph:7;ec:1400;orp:100;do:20;temp:25;
09:33:39 connected:T armed:F guided:T mode:AUTO.LOITER;lat: 40.9961957253 lon: 29.0660582459;x: 0.0 y: -0.02 z: 0.02;0.04;1.00;roll: -0.000472840241855 pitch: 0.000221150286961 yaw: -0.00126029911917;heading:-3.62515274574;circle_lat: 37 circle_lon: 37;ph:7;ec:1400;orp:100;do:20;temp:25;
09:33:39 connected:T armed:F guided:T mode:AUTO.LOITER;lat: 40.9961937523 lon: 29.0660591166;x: 0.0 y: -0.02 z: 0.02;0.04;1.00;roll: -0.000472840241855 pitch: 0.000221150286961 yaw: -0.00126029911917;heading:-3.47113296123;circle_lat: 37 circle_lon: 37;ph:7;ec:1400;orp:100;do:20;temp:25;
09:33:39 connected:T armed:F guided:T mode:AUTO.LOITER;lat: 40.9961944003 lon: 29.0660608871;x: 0.0 y: -0.02 z: 0.02;0.04;1.00;roll: -0.000472840241855 pitch: 0.000221150286961 yaw: -0.00126029911917;heading:-3.64908726268;circle_lat: 37 circle_lon: 37;ph:7;ec:1400;orp:100;do:20;temp:25;
09:33:39 connected:T armed:F guided:T mode:AUTO.LOITER;lat: 40.9961944287 lon: 29.0660621141;x: 0.0 y: -0.02 z: 0.02;0.04;1.00;roll: -0.000472840241855 pitch: 0.000221150286961 yaw: -0.00126029911917;heading:-3.77403593348;circle_lat: 37 circle_lon: 37;ph:7;ec:1400;orp:100;do:20;temp:25;
09:33:39 connected:T armed:F guided:T mode:AUTO.LOITER;lat: 40.9961942109 lon: 29.0660637166;x: 0.0 y: -0.02 z: 0.02;0.04;1.00;roll: -0.000472840241855 pitch: 0.000221150286961 yaw: -0.00126029911917;heading:-2.02034881106;circle_lat: 37 circle_lon: 37;ph:7;ec:1400;orp:100;do:20;temp:25;
09:33:39 connected:T armed:F guided:T mode:AUTO.LOITER;lat: 40.9961938735 lon: 29.0660653554;x: 0.0 y: -0.02 z: 0.02;0.04;1.00;roll: -0.000472840241855 pitch: 0.000221150286961 yaw: -0.00126029911917;heading:-1.41766551123;circle_lat: 37 circle_lon: 37;ph:7;ec:1400;orp:100;do:20;temp:25;
09:33:39 connected:T armed:F guided:T mode:AUTO.LOITER;lat: 40.9961944758 lon: 29.0660659078;x: 0.0 y: -0.02 z: 0.02;0.04;1.00;roll: -0.000472840241855 pitch: 0.000221150286961 yaw: -0.00126029911917;heading:-1.52186981446;circle_lat: 37 circle_lon: 37;ph:7;ec:1400;orp:100;do:20;temp:25;
09:33:39 connected:T armed:F guided:T mode:AUTO.LOITER;lat: 40.9961931144 lon: 29.0660667138;x: 0.0 y: -0.02 z: 0.02;0.04;1.00;roll: -0.000472840241855 pitch: 0.000221150286961 yaw: -0.00126029911917;heading:-1.68765817492;circle_lat: 37 circle_lon: 37;ph:7;ec:1400;orp:100;do:20;temp:25;
09:33:39 connected:T armed:F guided:T mode:AUTO.LOITER;lat: 40.9961943164 lon: 29.0660685178;x: 0.0 y: -0.02 z: 0.02;0.04;1.00;roll: -0.000472840241855 pitch: 0.000221150286961 yaw: -0.00126029911917;heading:-1.88012845472;circle_lat: 37 circle_lon: 37;ph:7;ec:1400;orp:100;do:20;temp:25;
09:33:39 connected:T armed:F guided:T mode:AUTO.LOITER;lat: 40.9961939988 lon: 29.0660679725;x: 0.0 y: -0.02 z: 0.02;0.04;1.00;roll: -0.000472840241855 pitch: 0.000221150286961 yaw: -0.00126029911917;heading:-1.19958080559;circle_lat: 37 circle_lon: 37;ph:7;ec:1400;orp:100;do:20;temp:25;
09:33:39 connected:T armed:F guided:T mode:AUTO.LOITER;lat: 40.9961943621 lon: 29.0660701848;x: 0.0 y: -0.02 z: 0.02;0.04;1.00;roll: -0.000472840241855 pitch: 0.000221150286961 yaw: -0.00126029911917;heading:-1.11880480276;circle_lat: 37 circle_lon: 37;ph:7;ec:1400;orp:100;do:20;temp:25;
09:33:39 connected:T armed:F guided:T mode:AUTO.LOITER;lat: 40.9961948716 lon: 29.0660711775;x: 0.0 y: -0.02 z: 0.02;0.04;1.00;roll: -0.000472840241855 pitch: 0.000221150286961 yaw: -0.00126029911917;heading:0.880524968612;circle_lat: 37 circle_lon: 37;ph:7;ec:1400;orp:100;do:20;temp:25;
09:33:39 connected:T armed:F guided:T mode:AUTO.LOITER;lat: 40.9961944704 lon: 29.0660716167;x: 0.0 y: -0.02 z: 0.02;0.04;1.00;roll: -0.000472840241855 pitch: 0.000221150286961 yaw: -0.00126029911917;heading:0.880524968612;circle_lat: 37 circle_lon: 37;ph:7;ec:1400;orp:100;do:20;temp:25;
09:33:39 connected:T armed:F guided:T mode:AUTO.LOITER;lat: 40.996194182 lon: 29.0660737623;x: 0.0 y: -0.02 z: 0.02;0.04;1.00;roll: -0.000472840241855 pitch: 0.000221150286961 yaw: -0.00126029911917;heading:1.44784937187;circle_lat: 37 circle_lon: 37;ph:7;ec:1400;orp:100;do:20;temp:25;
09:33:39 connected:T armed:F guided:T mode:AUTO.LOITER;lat: 40.9961943428 lon: 29.0660751748;x: 0.0 y: -0.02 z: 0.02;0.04;1.00;roll: -0.000472840241855 pitch: 0.000221150286961 yaw: -0.00126029911917;heading:1.56056196402;circle_lat: 37 circle_lon: 37;ph:7;ec:1400;orp:100;do:20;temp:25;
09:33:39 connected:T armed:F guided:T mode:AUTO.LOITER;lat: 40.9961940956 lon: 29.0660769929;x: 0.0 y: -0.02 z: 0.02;0.04;1.00;roll: -0.000472840241855 pitch: 0.000221150286961 yaw: -0.00126029911917;heading:1.67097585372;circle_lat: 37 circle_lon: 37;ph:7;ec:1400;orp:100;do:20;temp:25;
09:33:39 connected:T armed:F guided:T mode:AUTO.LOITER;lat: 40.9961947113 lon: 29.0660772002;x: 0.0 y: -0.02 z: 0.02;0.04;1.00;roll: -0.000472840241855 pitch: 0.000221150286961 yaw: -0.00126029911917;heading:1.78077648843;circle_lat: 37 circle_lon: 37;ph:7;ec:1400;orp:100;do:20;temp:25;
09:33:39 connected:T armed:F guided:T mode:AUTO.LOITER;lat: 40.9961935516 lon: 29.0660792907;x: 0.0 y: -0.02 z: 0.02;0.04;1.00;roll: -0.000472840241855 pitch: 0.000221150286961 yaw: -0.00126029911917;heading:1.89298404074;circle_lat: 37 circle_lon: 37;ph:7;ec:1400;orp:100;do:20;temp:25;
09:33:39 connected:T armed:F guided:T mode:AUTO.LOITER;lat: 40.9961940953 lon: 29.0660796619;x: 0.0 y: -0.02 z: 0.02;0.04;1.00;roll: -0.000472840241855 pitch: 0.000221150286961 yaw: -0.00126029911917;heading:2.00205380835;circle_lat: 37 circle_lon: 37;ph:7;ec:1400;orp:100;do:20;temp:25;
09:33:39 connected:T armed:F guided:T mode:AUTO.LOITER;lat: 40.9961940012 lon: 29.0660807225;x: 0.0 y: -0.02 z: 0.02;0.04;1.00;roll: -0.000472840241855 pitch: 0.000221150286961 yaw: -0.00126029911917;heading:2.10997780092;circle_lat: 37 circle_lon: 37;ph:7;ec:1400;orp:100;do:20;temp:25;
09:33:39 connected:T armed:F guided:T mode:AUTO.LOITER;lat: 40.9961941352 lon: 29.0660821449;x: 0.0 y: -0.02 z: 0.02;0.04;1.00;roll: -0.000472840241855 pitch: 0.000221150286961 yaw: -0.00126029911917;heading:2.22194055275;circle_lat: 37 circle_lon: 37;ph:7;ec:1400;orp:100;do:20;temp:25;
09:33:39 connected:T armed:F guided:T mode:AUTO.LOITER;lat: 40.9961941016 lon: 29.0660833698;x: 0.0 y: -0.02 z: 0.02;0.04;1.00;roll: -0.000472840241855 pitch: 0.000221150286961 yaw: -0.00126029911917;heading:2.32695604067;circle_lat: 37 circle_lon: 37;ph:7;ec:1400;orp:100;do:20;temp:25;
09:33:39 connected:T armed:F guided:T mode:AUTO.LOITER;lat: 40.9961941402 lon: 29.066084645;x: 0.0 y: -0.02 z: 0.02;0.04;1.00;roll: -0.000472840241855 pitch: 0.000221150286961 yaw: -0.00126029911917;heading:2.44179364569;circle_lat: 37 circle_lon: 37;ph:7;ec:1400;orp:100;do:20;temp:25;
09:33:39 connected:T armed:F guided:T mode:AUTO.LOITER;lat: 40.9961958207 lon: 29.0660866979;x: 0.0 y: -0.02 z: 0.02;0.04;1.00;roll: -0.000472840241855 pitch: 0.000221150286961 yaw: -0.00126029911917;heading:4.01682849936;circle_lat: 37 circle_lon: 37;ph:7;ec:1400;orp:100;do:20;temp:25;
09:33:39 connected:T armed:F guided:T mode:AUTO.LOITER;lat: 40.9961941321 lon: 29.0660864166;x: 0.0 y: -0.02 z: 0.02;0.04;1.00;roll: -0.000472840241855 pitch: 0.000221150286961 yaw: -0.00126029911917;heading:5.85663818124;circle_lat: 37 circle_lon: 37;ph:7;ec:1400;orp:100;do:20;temp:25;
09:33:39 connected:T armed:F guided:T mode:AUTO.LOITER;lat: 40.9961950259 lon: 29.0660882918;x: 0.0 y: -0.02 z: 0.02;0.04;1.00;roll: -0.000472840241855 pitch: 0.000221150286961 yaw: -0.00126029911917;heading:6.07976930525;circle_lat: 37 circle_lon: 37;ph:7;ec:1400;orp:100;do:20;temp:25;
09:33:39 connected:T armed:F guided:T mode:AUTO.LOITER;lat: 40.9961944987 lon: 29.0660899586;x: 0.0 y: -0.02 z: 0.02;0.04;1.00;roll: -0.000472840241855 pitch: 0.000221150286961 yaw: -0.00126029911917;heading:6.13079031722;circle_lat: 37 circle_lon: 37;ph:7;ec:1400;orp:100;do:20;temp:25;
09:33:39 connected:T armed:F guided:T mode:AUTO.LOITER;lat: 40.9961954619 lon: 29.0660896949;x: 0.0 y: -0.02 z: 0.02;0.04;1.00;roll: -0.000472840241855 pitch: 0.000221150286961 yaw: -0.00126029911917;heading:6.21839275318;circle_lat: 37 circle_lon: 37;ph:7;ec:1400;orp:100;do:20;temp:25;
09:33:39 connected:T armed:F guided:T mode:AUTO.LOITER;lat: 40.9961952029 lon: 29.0660925603;x: 0.0 y: -0.02 z: 0.02;0.04;1.00;roll: -0.000472840241855 pitch: 0.000221150286961 yaw: -0.00126029911917;heading:4.9975925259;circle_lat: 37 circle_lon: 37;ph:7;ec:1400;orp:100;do:20;temp:25;
09:33:39 connected:T armed:F guided:T mode:AUTO.LOITER;lat: 40.9961951254 lon: 29.0660937296;x: 0.0 y: -0.02 z: 0.02;0.04;1.00;roll: -0.000472840241855 pitch: 0.000221150286961 yaw: -0.00126029911917;heading:5.02057677997;circle_lat: 37 circle_lon: 37;ph:7;ec:1400;orp:100;do:20;temp:25;
09:33:39 connected:T armed:F guided:T mode:AUTO.LOITER;lat: 40.9961952899 lon: 29.0660940729;x: 0.0 y: -0.02 z: 0.02;0.04;1.00;roll: -0.000472840241855 pitch: 0.000221150286961 yaw: -0.00126029911917;heading:5.12933687432;circle_lat: 37 circle_lon: 37;ph:7;ec:1400;orp:100;do:20;temp:25;
09:33:39 connected:T armed:F guided:T mode:AUTO.LOITER;lat: 40.996195264 lon: 29.0660948746;x: 0.0 y: -0.02 z: 0.02;0.04;1.00;roll: -0.000472840241855 pitch: 0.000221150286961 yaw: -0.00126029911917;heading:5.23816714435;circle_lat: 37 circle_lon: 37;ph:7;ec:1400;orp:100;do:20;temp:25;
09:33:39 connected:T armed:F guided:T mode:AUTO.LOITER;lat: 40.9961947232 lon: 29.0660965455;x: 0.0 y: -0.02 z: 0.02;0.04;1.00;roll: -0.000472840241855 pitch: 0.000221150286961 yaw: -0.00126029911917;heading:5.34919175903;circle_lat: 37 circle_lon: 37;ph:7;ec:1400;orp:100;do:20;temp:25;
09:33:39 connected:T armed:F guided:T mode:AUTO.LOITER;lat: 40.996195515 lon: 29.0660967298;x: 0.0 y: -0.02 z: 0.02;0.04;1.00;roll: -0.000472840241855 pitch: 0.000221150286961 yaw: -0.00126029911917;heading:5.45957590273;circle_lat: 37 circle_lon: 37;ph:7;ec:1400;orp:100;do:20;temp:25;
09:33:39 connected:T armed:F guided:T mode:AUTO.LOITER;lat: 40.9961952444 lon: 29.0660987096;x: 0.0 y: -0.02 z: 0.02;0.04;1.00;roll: -0.000472840241855 pitch: 0.000221150286961 yaw: -0.00126029911917;heading:5.52769404122;circle_lat: 37 circle_lon: 37;ph:7;ec:1400;orp:100;do:20;temp:25;
09:33:39 connected:T armed:F guided:T mode:AUTO.LOITER;lat: 40.9961960428 lon: 29.0661003369;x: 0.0 y: -0.02 z: 0.02;0.04;1.00;roll: -0.000472840241855 pitch: 0.000221150286961 yaw: -0.00126029911917;heading:4.43185368978;circle_lat: 37 circle_lon: 37;ph:7;ec:1400;orp:100;do:20;temp:25;
09:33:39 connected:T armed:F guided:T mode:AUTO.LOITER;lat: 40.9961960199 lon: 29.066100298;x: 0.0 y: -0.02 z: 0.02;0.04;1.00;roll: -0.000472840241855 pitch: 0.000221150286961 yaw: -0.00126029911917;heading:4.5443315011;circle_lat: 37 circle_lon: 37;ph:7;ec:1400;orp:100;do:20;temp:25;
09:33:39 connected:T armed:F guided:T mode:AUTO.LOITER;lat: 40.9961964445 lon: 29.0661019906;x: 0.0 y: -0.02 z: 0.02;0.04;1.00;roll: -0.000472840241855 pitch: 0.000221150286961 yaw: -0.00126029911917;heading:4.65637793237;circle_lat: 37 circle_lon: 37;ph:7;ec:1400;orp:100;do:20;temp:25;
09:33:39 connected:T armed:F guided:T mode:AUTO.LOITER;lat: 40.9961952485 lon: 29.0661029199;x: 0.0 y: -0.02 z: 0.02;0.04;1.00;roll: -0.000472840241855 pitch: 0.000221150286961 yaw: -0.00126029911917;heading:4.76530744914;circle_lat: 37 circle_lon: 37;ph:7;ec:1400;orp:100;do:20;temp:25;
09:33:39 connected:T armed:F guided:T mode:AUTO.LOITER;lat: 40.9961959283 lon: 29.066104961;x: 0.0 y: -0.02 z: 0.02;0.04;1.00;roll: -0.000472840241855 pitch: 0.000221150286961 yaw: -0.00126029911917;heading:4.76116087681;circle_lat: 37 circle_lon: 37;ph:7;ec:1400;orp:100;do:20;temp:25;
09:33:39 connected:T armed:F guided:T mode:AUTO.LOITER;lat: 40.9961962722 lon: 29.0661051864;x: 0.0 y: -0.02 z: 0.02;0.04;1.00;roll: -0.000472840241855 pitch: 0.000221150286961 yaw: -0.00126029911917;heading:3.63318522586;circle_lat: 37 circle_lon: 37;ph:7;ec:1400;orp:100;do:20;temp:25;
09:33:39 connected:T armed:F guided:T mode:AUTO.LOITER;lat: 40.9961955927 lon: 29.0661065345;x: 0.0 y: -0.02 z: 0.02;0.04;1.00;roll: -0.000472840241855 pitch: 0.000221150286961 yaw: -0.00126029911917;heading:1.82272717634;circle_lat: 37 circle_lon: 37;ph:7;ec:1400;orp:100;do:20;temp:25;
09:33:39 connected:T armed:F guided:T mode:AUTO.LOITER;lat: 40.9961957962 lon: 29.0661071652;x: 0.0 y: -0.02 z: 0.02;0.04;1.00;roll: -0.000472840241855 pitch: 0.000221150286961 yaw: -0.00126029911917;heading:0.450180587758;circle_lat: 37 circle_lon: 37;ph:7;ec:1400;orp:100;do:20;temp:25;
09:33:39 connected:T armed:F guided:T mode:AUTO.LOITER;lat: 40.9961956251 lon: 29.066108768;x: 0.0 y: -0.02 z: 0.02;0.04;1.00;roll: -0.000472840241855 pitch: 0.000221150286961 yaw: -0.00126029911917;heading:0.501134023945;circle_lat: 37 circle_lon: 37;ph:7;ec:1400;orp:100;do:20;temp:25;
09:33:39 connected:T armed:F guided:T mode:AUTO.LOITER;lat: 40.9961947919 lon: 29.0661094555;x: 0.0 y: -0.02 z: 0.02;0.04;1.00;roll: -0.000472840241855 pitch: 0.000221150286961 yaw: -0.00126029911917;heading:0.562643814309;circle_lat: 37 circle_lon: 37;ph:7;ec:1400;orp:100;do:20;temp:25;
09:33:39 connected:T armed:F guided:T mode:AUTO.LOITER;lat: 40.9961961277 lon: 29.0661105279;x: 0.0 y: -0.02 z: 0.02;0.04;1.00;roll: -0.000472840241855 pitch: 0.000221150286961 yaw: -0.00126029911917;heading:0.628054267744;circle_lat: 37 circle_lon: 37;ph:7;ec:1400;orp:100;do:20;temp:25;
09:33:39 connected:T armed:F guided:T mode:AUTO.LOITER;lat: 40.9961958501 lon: 29.0661124111;x: 0.0 y: -0.02 z: 0.02;0.04;1.00;roll: -0.000472840241855 pitch: 0.000221150286961 yaw: -0.00126029911917;heading:0.696717854332;circle_lat: 37 circle_lon: 37;ph:7;ec:1400;orp:100;do:20;temp:25;
09:33:39 connected:T armed:F guided:T mode:AUTO.LOITER;lat: 40.9961957942 lon: 29.0661143326;x: 0.0 y: -0.02 z: 0.02;0.04;1.00;roll: -0.000472840241855 pitch: 0.000221150286961 yaw: -0.00126029911917;heading:0.772464790456;circle_lat: 37 circle_lon: 37;ph:7;ec:1400;orp:100;do:20;temp:25;
09:33:39 connected:T armed:F guided:T mode:AUTO.LOITER;lat: 40.9961962626 lon: 29.0661150881;x: 0.0 y: -0.02 z: 0.02;0.04;1.00;roll: -0.000472840241855 pitch: 0.000221150286961 yaw: -0.00126029911917;heading:0.862950028308;circle_lat: 37 circle_lon: 37;ph:7;ec:1400;orp:100;do:20;temp:25;
09:33:39 connected:T armed:F guided:T mode:AUTO.LOITER;lat: 40.9961959876 lon: 29.0661164554;x: 0.0 y: -0.02 z: 0.02;0.04;1.00;roll: -0.000472840241855 pitch: 0.000221150286961 yaw: -0.00126029911917;heading:0.950919979375;circle_lat: 37 circle_lon: 37;ph:7;ec:1400;orp:100;do:20;temp:25;
09:33:39 connected:T armed:F guided:T mode:AUTO.LOITER;lat: 40.9961957888 lon: 29.0661156693;x: 0.0 y: -0.02 z: 0.02;0.04;1.00;roll: -0.000472840241855 pitch: 0.000221150286961 yaw: -0.00126029911917;heading:1.05067291228;circle_lat: 37 circle_lon: 37;ph:7;ec:1400;orp:100;do:20;temp:25;
09:33:39 connected:T armed:F guided:T mode:AUTO.LOITER;lat: 40.99619587 lon: 29.0661192235;x: 0.0 y: -0.02 z: 0.02;0.04;1.00;roll: -0.000472840241855 pitch: 0.000221150286961 yaw: -0.00126029911917;heading:1.15902437428;circle_lat: 37 circle_lon: 37;ph:7;ec:1400;orp:100;do:20;temp:25;
09:33:39 connected:T armed:F guided:T mode:AUTO.LOITER;lat: 40.9961967954 lon: 29.0661190915;x: 0.0 y: -0.02 z: 0.02;0.04;1.00;roll: -0.000472840241855 pitch: 0.000221150286961 yaw: -0.00126029911917;heading:1.26993882873;circle_lat: 37 circle_lon: 37;ph:7;ec:1400;orp:100;do:20;temp:25;
09:33:39 connected:T armed:F guided:T mode:AUTO.LOITER;lat: 40.9961964569 lon: 29.066121034;x: 0.0 y: -0.02 z: 0.02;0.04;1.00;roll: -0.000472840241855 pitch: 0.000221150286961 yaw: -0.00126029911917;heading:1.37924067013;circle_lat: 37 circle_lon: 37;ph:7;ec:1400;orp:100;do:20;temp:25;
09:33:39 connected:T armed:F guided:T mode:AUTO.LOITER;lat: 40.996196022 lon: 29.0661217378;x: 0.0 y: -0.02 z: 0.02;0.04;1.00;roll: -0.000472840241855 pitch: 0.000221150286961 yaw: -0.00126029911917;heading:1.4875389883;circle_lat: 37 circle_lon: 37;ph:7;ec:1400;orp:100;do:20;temp:25;
09:33:39 connected:T armed:F guided:T mode:AUTO.LOITER;lat: 40.99619538 lon: 29.0661228309;x: 0.0 y: -0.02 z: 0.02;0.04;1.00;roll: -0.000472840241855 pitch: 0.000221150286961 yaw: -0.00126029911917;heading:1.59770666802;circle_lat: 37 circle_lon: 37;ph:7;ec:1400;orp:100;do:20;temp:25;
09:33:39 connected:T armed:F guided:T mode:AUTO.LOITER;lat: 40.9961959871 lon: 29.0661231595;x: 0.0 y: -0.02 z: 0.02;0.04;1.00;roll: -0.000472840241855 pitch: 0.000221150286961 yaw: -0.00126029911917;heading:1.70549958615;circle_lat: 37 circle_lon: 37;ph:7;ec:1400;orp:100;do:20;temp:25;
09:33:39 connected:T armed:F guided:T mode:AUTO.LOITER;lat: 40.9961961356 lon: 29.0661255423;x: 0.0 y: -0.02 z: 0.02;0.04;1.00;roll: -0.000472840241855 pitch: 0.000221150286961 yaw: -0.00126029911917;heading:1.81276852385;circle_lat: 37 circle_lon: 37;ph:7;ec:1400;orp:100;do:20;temp:25;
09:33:39 connected:T armed:F guided:T mode:AUTO.LOITER;lat: 40.9961972073 lon: 29.0661262136;x: 0.0 y: -0.02 z: 0.02;0.04;1.00;roll: -0.000472840241855 pitch: 0.000221150286961 yaw: -0.00126029911917;heading:1.92215565163;circle_lat: 37 circle_lon: 37;ph:7;ec:1400;orp:100;do:20;temp:25;
09:33:39 connected:T armed:F guided:T mode:AUTO.LOITER;lat: 40.9961966818 lon: 29.0661274654;x: 0.0 y: -0.02 z: 0.02;0.04;1.00;roll: -0.000472840241855 pitch: 0.000221150286961 yaw: -0.00126029911917;heading:2.02936674465;circle_lat: 37 circle_lon: 37;ph:7;ec:1400;orp:100;do:20;temp:25;
09:33:39 connected:T armed:F guided:T mode:AUTO.LOITER;lat: 40.9961967664 lon: 29.0661285198;x: 0.0 y: -0.02 z: 0.02;0.04;1.00;roll: -0.000472840241855 pitch: 0.000221150286961 yaw: -0.00126029911917;heading:1.77897798552;circle_lat: 37 circle_lon: 37;ph:7;ec:1400;orp:100;do:20;temp:25;
09:33:39 connected:T armed:F guided:T mode:AUTO.LOITER;lat: 40.9961965201 lon: 29.0661306822;x: 0.0 y: -0.02 z: 0.02;0.04;1.00;roll: -0.000472840241855 pitch: 0.000221150286961 yaw: -0.00126029911917;heading:0.91501339337;circle_lat: 37 circle_lon: 37;ph:7;ec:1400;orp:100;do:20;temp:25;
09:33:39 connected:T armed:F guided:T mode:AUTO.LOITER;lat: 40.9961957601 lon: 29.0661307041;x: 0.0 y: -0.02 z: 0.02;0.04;1.00;roll: -0.000472840241855 pitch: 0.000221150286961 yaw: -0.00126029911917;heading:1.00854554709;circle_lat: 37 circle_lon: 37;ph:7;ec:1400;orp:100;do:20;temp:25;
09:33:39 connected:T armed:F guided:T mode:AUTO.LOITER;lat: 40.9961968703 lon: 29.0661330805;x: 0.0 y: -0.02 z: 0.02;0.04;1.00;roll: -0.000472840241855 pitch: 0.000221150286961 yaw: -0.00126029911917;heading:1.11130282212;circle_lat: 37 circle_lon: 37;ph:7;ec:1400;orp:100;do:20;temp:25;
09:33:39 connected:T armed:F guided:T mode:AUTO.LOITER;lat: 40.9961964659 lon: 29.0661339565;x: 0.0 y: -0.02 z: 0.02;0.04;1.00;roll: -0.000472840241855 pitch: 0.000221150286961 yaw: -0.00126029911917;heading:1.22091682427;circle_lat: 37 circle_lon: 37;ph:7;ec:1400;orp:100;do:20;temp:25;
09:33:39 connected:T armed:F guided:T mode:AUTO.LOITER;lat: 40.9961967302 lon: 29.0661347441;x: 0.0 y: -0.02 z: 0.02;0.04;1.00;roll: -0.000472840241855 pitch: 0.000221150286961 yaw: -0.00126029911917;heading:1.32754109243;circle_lat: 37 circle_lon: 37;ph:7;ec:1400;orp:100;do:20;temp:25;
09:33:39 connected:T armed:F guided:T mode:AUTO.LOITER;lat: 40.996196697 lon: 29.0661360651;x: 0.0 y: -0.02 z: 0.02;0.04;1.00;roll: -0.000472840241855 pitch: 0.000221150286961 yaw: -0.00126029911917;heading:1.43445350859;circle_lat: 37 circle_lon: 37;ph:7;ec:1400;orp:100;do:20;temp:25;
09:33:39 connected:T armed:F guided:T mode:AUTO.LOITER;lat: 40.9961969912 lon: 29.0661364101;x: 0.0 y: -0.02 z: 0.02;0.04;1.00;roll: -0.000472840241855 pitch: 0.000221150286961 yaw: -0.00126029911917;heading:1.54339719283;circle_lat: 37 circle_lon: 37;ph:7;ec:1400;orp:100;do:20;temp:25;
09:33:39 connected:T armed:F guided:T mode:AUTO.LOITER;lat: 40.9961964349 lon: 29.0661388924;x: 0.0 y: -0.02 z: 0.02;0.04;1.00;roll: -0.000472840241855 pitch: 0.000221150286961 yaw: -0.00126029911917;heading:1.6517008554;circle_lat: 37 circle_lon: 37;ph:7;ec:1400;orp:100;do:20;temp:25;
09:33:39 connected:T armed:F guided:T mode:AUTO.LOITER;lat: 40.996195631 lon: 29.0661393861;x: 0.0 y: -0.02 z: 0.02;0.04;1.00;roll: -0.000472840241855 pitch: 0.000221150286961 yaw: -0.00126029911917;heading:1.73386873012;circle_lat: 37 circle_lon: 37;ph:7;ec:1400;orp:100;do:20;temp:25;
09:33:39 connected:T armed:F guided:T mode:AUTO.LOITER;lat: 40.996195822 lon: 29.0661408056;x: 0.0 y: -0.02 z: 0.02;0.04;1.00;roll: -0.000472840241855 pitch: 0.000221150286961 yaw: -0.00126029911917;heading:1.78608633373;circle_lat: 37 circle_lon: 37;ph:7;ec:1400;orp:100;do:20;temp:25;
09:33:39 connected:T armed:F guided:T mode:AUTO.LOITER;lat: 40.9961961863 lon: 29.0661415854;x: 0.0 y: -0.02 z: 0.02;0.04;1.00;roll: -0.000472840241855 pitch: 0.000221150286961 yaw: -0.00126029911917;heading:1.89109851781;circle_lat: 37 circle_lon: 37;ph:7;ec:1400;orp:100;do:20;temp:25;
09:33:39 connected:T armed:F guided:T mode:AUTO.LOITER;lat: 40.9961961107 lon: 29.0661423394;x: 0.0 y: -0.02 z: 0.02;0.04;1.00;roll: -0.000472840241855 pitch: 0.000221150286961 yaw: -0.00126029911917;heading:1.97463696949;circle_lat: 37 circle_lon: 37;ph:7;ec:1400;orp:100;do:20;temp:25;
09:33:39 connected:T armed:F guided:T mode:AUTO.LOITER;lat: 40.9961980261 lon: 29.0661446459;x: 0.0 y: -0.02 z: 0.02;0.04;1.00;roll: -0.000472840241855 pitch: 0.000221150286961 yaw: -0.00126029911917;heading:2.08109203653;circle_lat: 37 circle_lon: 37;ph:7;ec:1400;orp:100;do:20;temp:25;
09:33:39 connected:T armed:F guided:T mode:AUTO.LOITER;lat: 40.9961958424 lon: 29.0661454403;x: 0.0 y: -0.02 z: 0.02;0.04;1.00;roll: -0.000472840241855 pitch: 0.000221150286961 yaw: -0.00126029911917;heading:2.18932486054;circle_lat: 37 circle_lon: 37;ph:7;ec:1400;orp:100;do:20;temp:25;
09:33:39 connected:T armed:F guided:T mode:AUTO.LOITER;lat: 40.9961962374 lon: 29.066147121;x: 0.0 y: -0.02 z: 0.02;0.04;1.00;roll: -0.000472840241855 pitch: 0.000221150286961 yaw: -0.00126029911917;heading:2.29945942583;circle_lat: 37 circle_lon: 37;ph:7;ec:1400;orp:100;do:20;temp:25;
09:33:39 connected:T armed:F guided:T mode:AUTO.LOITER;lat: 40.9961973279 lon: 29.0661487271;x: 0.0 y: -0.02 z: 0.02;0.04;1.00;roll: -0.000472840241855 pitch: 0.000221150286961 yaw: -0.00126029911917;heading:2.41017495783;circle_lat: 37 circle_lon: 37;ph:7;ec:1400;orp:100;do:20;temp:25;
09:33:39 connected:T armed:F guided:T mode:AUTO.LOITER;lat: 40.9961963414 lon: 29.0661476841;x: 0.0 y: -0.02 z: 0.02;0.04;1.00;roll: -0.000472840241855 pitch: 0.000221150286961 yaw: -0.00126029911917;heading:2.51874585209;circle_lat: 37 circle_lon: 37;ph:7;ec:1400;orp:100;do:20;temp:25;
09:33:39 connected:T armed:F guided:T mode:AUTO.LOITER;lat: 40.9961971601 lon: 29.0661500303;x: 0.0 y: -0.02 z: 0.02;0.04;1.00;roll: -0.000472840241855 pitch: 0.000221150286961 yaw: -0.00126029911917;heading:2.62990501253;circle_lat: 37 circle_lon: 37;ph:7;ec:1400;orp:100;do:20;temp:25;
09:33:39 connected:T armed:F guided:T mode:AUTO.LOITER;lat: 40.9961965691 lon: 29.0661509428;x: 0.0 y: -0.02 z: 0.02;0.04;1.00;roll: -0.000472840241855 pitch: 0.000221150286961 yaw: -0.00126029911917;heading:1.9202227103;circle_lat: 37 circle_lon: 37;ph:7;ec:1400;orp:100;do:20;temp:25;
09:33:39 connected:T armed:F guided:T mode:AUTO.LOITER;lat: 40.9961966002 lon: 29.0661535305;x: 0.0 y: -0.02 z: 0.02;0.04;1.00;roll: -0.000472840241855 pitch: 0.000221150286961 yaw: -0.00126029911917;heading:1.32542430303;circle_lat: 37 circle_lon: 37;ph:7;ec:1400;orp:100;do:20;temp:25;
09:33:39 connected:T armed:F guided:T mode:AUTO.LOITER;lat: 40.9961973714 lon: 29.0661543845;x: 0.0 y: -0.02 z: 0.02;0.04;1.00;roll: -0.000472840241855 pitch: 0.000221150286961 yaw: -0.00126029911917;heading:1.43459072083;circle_lat: 37 circle_lon: 37;ph:7;ec:1400;orp:100;do:20;temp:25;
09:33:39 connected:T armed:F guided:T mode:AUTO.LOITER;lat: 40.9961966634 lon: 29.066155465;x: 0.0 y: -0.02 z: 0.02;0.04;1.00;roll: -0.000472840241855 pitch: 0.000221150286961 yaw: -0.00126029911917;heading:1.55027321157;circle_lat: 37 circle_lon: 37;ph:7;ec:1400;orp:100;do:20;temp:25;
09:33:39 connected:T armed:F guided:T mode:AUTO.LOITER;lat: 40.99619627 lon: 29.066157519;x: 0.0 y: -0.02 z: 0.02;0.04;1.00;roll: -0.000472840241855 pitch: 0.000221150286961 yaw: -0.00126029911917;heading:1.65942403785;circle_lat: 37 circle_lon: 37;ph:7;ec:1400;orp:100;do:20;temp:25;
09:33:39 connected:T armed:F guided:T mode:AUTO.LOITER;lat: 40.9961968916 lon: 29.0661570976;x: 0.0 y: -0.02 z: 0.02;0.04;1.00;roll: -0.000472840241855 pitch: 0.000221150286961 yaw: -0.00126029911917;heading:1.77066925302;circle_lat: 37 circle_lon: 37;ph:7;ec:1400;orp:100;do:20;temp:25;
09:33:39 connected:T armed:F guided:T mode:AUTO.LOITER;lat: 40.9961969546 lon: 29.0661586304;x: 0.0 y: -0.02 z: 0.02;0.04;1.00;roll: -0.000472840241855 pitch: 0.000221150286961 yaw: -0.00126029911917;heading:1.87954523457;circle_lat: 37 circle_lon: 37;ph:7;ec:1400;orp:100;do:20;temp:25;
09:33:39 connected:T armed:F guided:T mode:AUTO.LOITER;lat: 40.99619724 lon: 29.0661594228;x: 0.0 y: -0.02 z: 0.02;0.04;1.00;roll: -0.000472840241855 pitch: 0.000221150286961 yaw: -0.00126029911917;heading:1.98864298337;circle_lat: 37 circle_lon: 37;ph:7;ec:1400;orp:100;do:20;temp:25;
09:33:39 connected:T armed:F guided:T mode:AUTO.LOITER;lat: 40.9961970033 lon: 29.066160453;x: 0.0 y: -0.02 z: 0.02;0.04;1.00;roll: -0.000472840241855 pitch: 0.000221150286961 yaw: -0.00126029911917;heading:2.10547581462;circle_lat: 37 circle_lon: 37;ph:7;ec:1400;orp:100;do:20;temp:25;
09:33:39 connected:T armed:F guided:T mode:AUTO.LOITER;lat: 40.9961973058 lon: 29.0661616391;x: 0.0 y: -0.02 z: 0.02;0.04;1.00;roll: -0.000472840241855 pitch: 0.000221150286961 yaw: -0.00126029911917;heading:2.2136709519;circle_lat: 37 circle_lon: 37;ph:7;ec:1400;orp:100;do:20;temp:25;
09:33:39 connected:T armed:F guided:T mode:AUTO.LOITER;lat: 40.9961969282 lon: 29.0661627611;x: 0.0 y: -0.02 z: 0.02;0.04;1.00;roll: -0.000472840241855 pitch: 0.000221150286961 yaw: -0.00126029911917;heading:2.32409367785;circle_lat: 37 circle_lon: 37;ph:7;ec:1400;orp:100;do:20;temp:25;
09:33:39 connected:T armed:F guided:T mode:AUTO.LOITER;lat: 40.9961965806 lon: 29.0661636377;x: 0.0 y: -0.02 z: 0.02;0.04;1.00;roll: -0.000472840241855 pitch: 0.000221150286961 yaw: -0.00126029911917;heading:2.43293496297;circle_lat: 37 circle_lon: 37;ph:7;ec:1400;orp:100;do:20;temp:25;
09:33:39 connected:T armed:F guided:T mode:AUTO.LOITER;lat: 40.9961963501 lon: 29.0661636058;x: 0.0 y: -0.02 z: 0.02;0.04;1.00;roll: -0.000472840241855 pitch: 0.000221150286961 yaw: -0.00126029911917;heading:2.54003221161;circle_lat: 37 circle_lon: 37;ph:7;ec:1400;orp:100;do:20;temp:25;
09:33:39 connected:T armed:F guided:T mode:AUTO.LOITER;lat: 40.9961975646 lon: 29.0661662447;x: 0.0 y: -0.02 z: 0.02;0.04;1.00;roll: -0.000472840241855 pitch: 0.000221150286961 yaw: -0.00126029911917;heading:2.6467857119;circle_lat: 37 circle_lon: 37;ph:7;ec:1400;orp:100;do:20;temp:25;
09:33:39 connected:T armed:F guided:T mode:AUTO.LOITER;lat: 40.9961977432 lon: 29.0661684851;x: 0.0 y: -0.02 z: 0.02;0.04;1.00;roll: -0.000472840241855 pitch: 0.000221150286961 yaw: -0.00126029911917;heading:2.75288707529;circle_lat: 37 circle_lon: 37;ph:7;ec:1400;orp:100;do:20;temp:25;
09:33:39 connected:T armed:F guided:T mode:AUTO.LOITER;lat: 40.9961974196 lon: 29.0661684162;x: 0.0 y: -0.02 z: 0.02;0.04;1.00;roll: -0.000472840241855 pitch: 0.000221150286961 yaw: -0.00126029911917;heading:2.86025451067;circle_lat: 37 circle_lon: 37;ph:7;ec:1400;orp:100;do:20;temp:25;
09:33:39 connected:T armed:F guided:T mode:AUTO.LOITER;lat: 40.9961969427 lon: 29.0661690142;x: 0.0 y: -0.02 z: 0.02;0.04;1.00;roll: -0.000472840241855 pitch: 0.000221150286961 yaw: -0.00126029911917;heading:2.96721684386;circle_lat: 37 circle_lon: 37;ph:7;ec:1400;orp:100;do:20;temp:25;
09:33:39 connected:T armed:F guided:T mode:AUTO.LOITER;lat: 40.9961969691 lon: 29.0661714774;x: 0.0 y: -0.02 z: 0.02;0.04;1.00;roll: -0.000472840241855 pitch: 0.000221150286961 yaw: -0.00126029911917;heading:3.07235177072;circle_lat: 37 circle_lon: 37;ph:7;ec:1400;orp:100;do:20;temp:25;
09:33:39 connected:T armed:F guided:T mode:AUTO.LOITER;lat: 40.9961968029 lon: 29.0661712862;x: 0.0 y: -0.02 z: 0.02;0.04;1.00;roll: -0.000472840241855 pitch: 0.000221150286961 yaw: -0.00126029911917;heading:3.17733335097;circle_lat: 37 circle_lon: 37;ph:7;ec:1400;orp:100;do:20;temp:25;
09:33:39 connected:T armed:F guided:T mode:AUTO.LOITER;lat: 40.9961979174 lon: 29.0661731257;x: 0.0 y: -0.02 z: 0.02;0.04;1.00;roll: -0.000472840241855 pitch: 0.000221150286961 yaw: -0.00126029911917;heading:3.28222056854;circle_lat: 37 circle_lon: 37;ph:7;ec:1400;orp:100;do:20;temp:25;
09:33:39 connected:T armed:F guided:T mode:AUTO.LOITER;lat: 40.9961972015 lon: 29.0661748507;x: 0.0 y: -0.02 z: 0.02;0.04;1.00;roll: -0.000472840241855 pitch: 0.000221150286961 yaw: -0.00126029911917;heading:3.38664075472;circle_lat: 37 circle_lon: 37;ph:7;ec:1400;orp:100;do:20;temp:25;
09:33:39 connected:T armed:F guided:T mode:AUTO.LOITER;lat: 40.9961982661 lon: 29.0661756541;x: 0.0 y: -0.02 z: 0.02;0.04;1.00;roll: -0.000472840241855 pitch: 0.000221150286961 yaw: -0.00126029911917;heading:3.49366660212;circle_lat: 37 circle_lon: 37;ph:7;ec:1400;orp:100;do:20;temp:25;
09:33:39 connected:T armed:F guided:T mode:AUTO.LOITER;lat: 40.9961973516 lon: 29.0661766855;x: 0.0 y: -0.02 z: 0.02;0.04;1.00;roll: -0.000472840241855 pitch: 0.000221150286961 yaw: -0.00126029911917;heading:2.20719910157;circle_lat: 37 circle_lon: 37;ph:7;ec:1400;orp:100;do:20;temp:25;
09:33:39 connected:T armed:F guided:T mode:AUTO.LOITER;lat: 40.9961971635 lon: 29.0661786636;x: 0.0 y: -0.02 z: 0.02;0.04;1.00;roll: -0.000472840241855 pitch: 0.000221150286961 yaw: -0.00126029911917;heading:0.849589368559;circle_lat: 37 circle_lon: 37;ph:7;ec:1400;orp:100;do:20;temp:25;
09:33:39 connected:T armed:F guided:T mode:AUTO.LOITER;lat: 40.9961970802 lon: 29.0661795978;x: 0.0 y: -0.02 z: 0.02;0.04;1.00;roll: -0.000472840241855 pitch: 0.000221150286961 yaw: -0.00126029911917;heading:0.849589368559;circle_lat: 37 circle_lon: 37;ph:7;ec:1400;orp:100;do:20;temp:25;
09:33:39 connected:T armed:F guided:T mode:AUTO.LOITER;lat: 40.9961967864 lon: 29.0661797905;x: 0.0 y: -0.02 z: 0.02;0.04;1.00;roll: -0.000472840241855 pitch: 0.000221150286961 yaw: -0.00126029911917;heading:0.596472853975;circle_lat: 37 circle_lon: 37;ph:7;ec:1400;orp:100;do:20;temp:25;
09:33:39 connected:T armed:F guided:T mode:AUTO.LOITER;lat: 40.9961968677 lon: 29.0661815066;x: 0.0 y: -0.02 z: 0.02;0.04;1.00;roll: -0.000472840241855 pitch: 0.000221150286961 yaw: -0.00126029911917;heading:0.661130112877;circle_lat: 37 circle_lon: 37;ph:7;ec:1400;orp:100;do:20;temp:25;
09:33:39 connected:T armed:F guided:T mode:AUTO.LOITER;lat: 40.9961983805 lon: 29.0661821937;x: 0.0 y: -0.02 z: 0.02;0.04;1.00;roll: -0.000472840241855 pitch: 0.000221150286961 yaw: -0.00126029911917;heading:0.732437352245;circle_lat: 37 circle_lon: 37;ph:7;ec:1400;orp:100;do:20;temp:25;
09:33:39 connected:T armed:F guided:T mode:AUTO.LOITER;lat: 40.9961974446 lon: 29.0661845109;x: 0.0 y: -0.02 z: 0.02;0.04;1.00;roll: -0.000472840241855 pitch: 0.000221150286961 yaw: -0.00126029911917;heading:0.811276767514;circle_lat: 37 circle_lon: 37;ph:7;ec:1400;orp:100;do:20;temp:25;
09:33:39 connected:T armed:F guided:T mode:AUTO.LOITER;lat: 40.9961987053 lon: 29.066185854;x: 0.0 y: -0.02 z: 0.02;0.04;1.00;roll: -0.000472840241855 pitch: 0.000221150286961 yaw: -0.00126029911917;heading:0.898000452451;circle_lat: 37 circle_lon: 37;ph:7;ec:1400;orp:100;do:20;temp:25;
09:33:39 connected:T armed:F guided:T mode:AUTO.LOITER;lat: 40.9961975509 lon: 29.0661869016;x: 0.0 y: -0.02 z: 0.02;0.04;1.00;roll: -0.000472840241855 pitch: 0.000221150286961 yaw: -0.00126029911917;heading:0.991170670599;circle_lat: 37 circle_lon: 37;ph:7;ec:1400;orp:100;do:20;temp:25;
09:33:39 connected:T armed:F guided:T mode:AUTO.LOITER;lat: 40.9961965554 lon: 29.0661878118;x: 0.0 y: -0.02 z: 0.02;0.04;1.00;roll: -0.000472840241855 pitch: 0.000221150286961 yaw: -0.00126029911917;heading:1.09404786086;circle_lat: 37 circle_lon: 37;ph:7;ec:1400;orp:100;do:20;temp:25;
09:33:39 connected:T armed:F guided:T mode:AUTO.LOITER;lat: 40.9961981413 lon: 29.0661883197;x: 0.0 y: -0.02 z: 0.02;0.04;1.00;roll: -0.000472840241855 pitch: 0.000221150286961 yaw: -0.00126029911917;heading:1.2024484617;circle_lat: 37 circle_lon: 37;ph:7;ec:1400;orp:100;do:20;temp:25;
09:33:39 connected:T armed:F guided:T mode:AUTO.LOITER;lat: 40.9961974717 lon: 29.0661899489;x: 0.0 y: -0.02 z: 0.02;0.04;1.00;roll: -0.000472840241855 pitch: 0.000221150286961 yaw: -0.00126029911917;heading:0.0690557362622;circle_lat: 37 circle_lon: 37;ph:7;ec:1400;orp:100;do:20;temp:25;
09:33:39 connected:T armed:F guided:T mode:AUTO.LOITER;lat: 40.9961982167 lon: 29.0661911289;x: 0.0 y: -0.02 z: 0.02;0.04;1.00;roll: -0.000472840241855 pitch: 0.000221150286961 yaw: -0.00126029911917;heading:-0.0187835354946;circle_lat: 37 circle_lon: 37;ph:7;ec:1400;orp:100;do:20;temp:25;
09:33:39 connected:T armed:F guided:T mode:AUTO.LOITER;lat: 40.9961978177 lon: 29.0661923214;x: 0.0 y: -0.02 z: 0.02;0.04;1.00;roll: -0.000472840241855 pitch: 0.000221150286961 yaw: -0.00126029911917;heading:-0.0207683628636;circle_lat: 37 circle_lon: 37;ph:7;ec:1400;orp:100;do:20;temp:25;
09:33:39 connected:T armed:F guided:T mode:AUTO.LOITER;lat: 40.9961977719 lon: 29.0661932045;x: 0.0 y: -0.02 z: 0.02;0.04;1.00;roll: -0.000472840241855 pitch: 0.000221150286961 yaw: -0.00126029911917;heading:-0.0221086116291;circle_lat: 37 circle_lon: 37;ph:7;ec:1400;orp:100;do:20;temp:25;
09:33:39 connected:T armed:F guided:T mode:AUTO.LOITER;lat: 40.9961979377 lon: 29.0661944973;x: 0.0 y: -0.02 z: 0.02;0.04;1.00;roll: -0.000472840241855 pitch: 0.000221150286961 yaw: -0.00126029911917;heading:-0.0228433287923;circle_lat: 37 circle_lon: 37;ph:7;ec:1400;orp:100;do:20;temp:25;
09:33:39 connected:T armed:F guided:T mode:AUTO.LOITER;lat: 40.9961974517 lon: 29.0661953656;x: 0.0 y: -0.02 z: 0.02;0.04;1.00;roll: -0.000472840241855 pitch: 0.000221150286961 yaw: -0.00126029911917;heading:-0.0333283545228;circle_lat: 37 circle_lon: 37;ph:7;ec:1400;orp:100;do:20;temp:25;
09:33:39 connected:T armed:F guided:T mode:AUTO.LOITER;lat: 40.9961971582 lon: 29.0661967304;x: 0.0 y: -0.02 z: 0.02;0.04;1.00;roll: -0.000472840241855 pitch: 0.000221150286961 yaw: -0.00126029911917;heading:-0.037668026385;circle_lat: 37 circle_lon: 37;ph:7;ec:1400;orp:100;do:20;temp:25;
09:33:39 connected:T armed:F guided:T mode:AUTO.LOITER;lat: 40.9961981698 lon: 29.0661982399;x: 0.0 y: -0.02 z: 0.02;0.04;1.00;roll: -0.000472840241855 pitch: 0.000221150286961 yaw: -0.00126029911917;heading:-0.0411240499165;circle_lat: 37 circle_lon: 37;ph:7;ec:1400;orp:100;do:20;temp:25;
09:33:39 connected:T armed:F guided:T mode:AUTO.LOITER;lat: 40.9961975651 lon: 29.0661987862;x: 0.0 y: -0.02 z: 0.02;0.04;1.00;roll: -0.000472840241855 pitch: 0.000221150286961 yaw: -0.00126029911917;heading:-0.120435766535;circle_lat: 37 circle_lon: 37;ph:7;ec:1400;orp:100;do:20;temp:25;
09:33:39 connected:T armed:F guided:T mode:AUTO.LOITER;lat: 40.9961975928 lon: 29.0661991769;x: 0.0 y: -0.02 z: 0.02;0.04;1.00;roll: -0.000472840241855 pitch: 0.000221150286961 yaw: -0.00126029911917;heading:-3.30566915814;circle_lat: 37 circle_lon: 37;ph:7;ec:1400;orp:100;do:20;temp:25;
09:33:39 connected:T armed:F guided:T mode:AUTO.LOITER;lat: 40.9961980574 lon: 29.066200552;x: 0.0 y: -0.02 z: 0.02;0.04;1.00;roll: -0.000472840241855 pitch: 0.000221150286961 yaw: -0.00126029911917;heading:-17.9596929548;circle_lat: 37 circle_lon: 37;ph:7;ec:1400;orp:100;do:20;temp:25;
09:33:39 connected:T armed:F guided:T mode:AUTO.LOITER;lat: 40.9961979697 lon: 29.0661991843;x: 0.0 y: -0.02 z: 0.02;0.04;1.00;roll: -0.000472840241855 pitch: 0.000221150286961 yaw: -0.00126029911917;heading:-18.023307722;circle_lat: 37 circle_lon: 37;ph:7;ec:1400;orp:100;do:20;temp:25;
09:33:39 connected:T armed:F guided:T mode:AUTO.LOITER;lat: 40.9961979292 lon: 29.0662006489;x: 0.0 y: -0.02 z: 0.02;0.04;1.00;roll: -0.000472840241855 pitch: 0.000221150286961 yaw: -0.00126029911917;heading:-18.082195365;circle_lat: 37 circle_lon: 37;ph:7;ec:1400;orp:100;do:20;temp:25;
09:33:39 connected:T armed:F guided:T mode:AUTO.LOITER;lat: 40.9961970396 lon: 29.0661999518;x: 0.0 y: -0.02 z: 0.02;0.04;1.00;roll: -0.000472840241855 pitch: 0.000221150286961 yaw: -0.00126029911917;heading:-18.1469377641;circle_lat: 37 circle_lon: 37;ph:7;ec:1400;orp:100;do:20;temp:25;
09:33:39 connected:T armed:F guided:T mode:AUTO.LOITER;lat: 40.9961978769 lon: 29.0661996817;x: 0.0 y: -0.02 z: 0.02;0.04;1.00;roll: -0.000472840241855 pitch: 0.000221150286961 yaw: -0.00126029911917;heading:-18.2074025733;circle_lat: 37 circle_lon: 37;ph:7;ec:1400;orp:100;do:20;temp:25;
09:33:39 connected:T armed:F guided:T mode:AUTO.LOITER;lat: 40.9961975953 lon: 29.0661988956;x: 0.0 y: -0.02 z: 0.02;0.04;1.00;roll: -0.000472840241855 pitch: 0.000221150286961 yaw: -0.00126029911917;heading:-18.2675951357;circle_lat: 37 circle_lon: 37;ph:7;ec:1400;orp:100;do:20;temp:25;
09:33:39 connected:T armed:F guided:T mode:AUTO.LOITER;lat: 40.996197201 lon: 29.0662007056;x: 0.0 y: -0.02 z: 0.02;0.04;1.00;roll: -0.000472840241855 pitch: 0.000221150286961 yaw: -0.00126029911917;heading:-18.3275105787;circle_lat: 37 circle_lon: 37;ph:7;ec:1400;orp:100;do:20;temp:25;
09:33:39 connected:T armed:F guided:T mode:AUTO.LOITER;lat: 40.9961975859 lon: 29.0661996285;x: 0.0 y: -0.02 z: 0.02;0.04;1.00;roll: -0.000472840241855 pitch: 0.000221150286961 yaw: -0.00126029911917;heading:-18.3891693364;circle_lat: 37 circle_lon: 37;ph:7;ec:1400;orp:100;do:20;temp:25;
09:33:39 connected:T armed:F guided:T mode:AUTO.LOITER;lat: 40.9961978324 lon: 29.0662002029;x: 0.0 y: -0.02 z: 0.02;0.04;1.00;roll: -0.000472840241855 pitch: 0.000221150286961 yaw: -0.00126029911917;heading:-18.44851385;circle_lat: 37 circle_lon: 37;ph:7;ec:1400;orp:100;do:20;temp:25;
09:33:39 connected:T armed:F guided:T mode:AUTO.LOITER;lat: 40.9961968943 lon: 29.0662004511;x: 0.0 y: -0.02 z: 0.02;0.04;1.00;roll: -0.000472840241855 pitch: 0.000221150286961 yaw: -0.00126029911917;heading:-18.5055698064;circle_lat: 37 circle_lon: 37;ph:7;ec:1400;orp:100;do:20;temp:25;
09:33:39 connected:T armed:F guided:T mode:AUTO.LOITER;lat: 40.9961974898 lon: 29.0662007428;x: 0.0 y: -0.02 z: 0.02;0.04;1.00;roll: -0.000472840241855 pitch: 0.000221150286961 yaw: -0.00126029911917;heading:-18.5663418306;circle_lat: 37 circle_lon: 37;ph:7;ec:1400;orp:100;do:20;temp:25;
09:33:39 connected:T armed:F guided:T mode:AUTO.LOITER;lat: 40.9961974742 lon: 29.0662002649;x: 0.0 y: -0.02 z: 0.02;0.04;1.00;roll: -0.000472840241855 pitch: 0.000221150286961 yaw: -0.00126029911917;heading:-18.6267428278;circle_lat: 37 circle_lon: 37;ph:7;ec:1400;orp:100;do:20;temp:25;
09:33:39 connected:T armed:F guided:T mode:AUTO.LOITER;lat: 40.9961969495 lon: 29.0662005422;x: 0.0 y: -0.02 z: 0.02;0.04;1.00;roll: -0.000472840241855 pitch: 0.000221150286961 yaw: -0.00126029911917;heading:-18.6849148737;circle_lat: 37 circle_lon: 37;ph:7;ec:1400;orp:100;do:20;temp:25;
09:33:39 connected:T armed:F guided:T mode:AUTO.LOITER;lat: 40.9961973258 lon: 29.066199552;x: 0.0 y: -0.02 z: 0.02;0.04;1.00;roll: -0.000472840241855 pitch: 0.000221150286961 yaw: -0.00126029911917;heading:-18.7446957589;circle_lat: 37 circle_lon: 37;ph:7;ec:1400;orp:100;do:20;temp:25;
09:33:39 connected:T armed:F guided:T mode:AUTO.LOITER;lat: 40.9961976178 lon: 29.0662011509;x: 0.0 y: -0.02 z: 0.02;0.04;1.00;roll: -0.000472840241855 pitch: 0.000221150286961 yaw: -0.00126029911917;heading:-18.8022645452;circle_lat: 37 circle_lon: 37;ph:7;ec:1400;orp:100;do:20;temp:25;
09:33:39 connected:T armed:F guided:T mode:AUTO.LOITER;lat: 40.9961972965 lon: 29.0662008583;x: 0.0 y: -0.02 z: 0.02;0.04;1.00;roll: -0.000472840241855 pitch: 0.000221150286961 yaw: -0.00126029911917;heading:-18.8595345986;circle_lat: 37 circle_lon: 37;ph:7;ec:1400;orp:100;do:20;temp:25;
09:33:39 connected:T armed:F guided:T mode:AUTO.LOITER;lat: 40.9961974446 lon: 29.0662008645;x: 0.0 y: -0.02 z: 0.02;0.04;1.00;roll: -0.000472840241855 pitch: 0.000221150286961 yaw: -0.00126029911917;heading:-18.9165051154;circle_lat: 37 circle_lon: 37;ph:7;ec:1400;orp:100;do:20;temp:25;
09:33:39 connected:T armed:F guided:T mode:AUTO.LOITER;lat: 40.996197051 lon: 29.0661997242;x: 0.0 y: -0.02 z: 0.02;0.04;1.00;roll: -0.000472840241855 pitch: 0.000221150286961 yaw: -0.00126029911917;heading:-18.9750965514;circle_lat: 37 circle_lon: 37;ph:7;ec:1400;orp:100;do:20;temp:25;
09:33:39 connected:T armed:F guided:T mode:AUTO.LOITER;lat: 40.9961974346 lon: 29.0661996502;x: 0.0 y: -0.02 z: 0.02;0.04;1.00;roll: -0.000472840241855 pitch: 0.000221150286961 yaw: -0.00126029911917;heading:-19.0314546562;circle_lat: 37 circle_lon: 37;ph:7;ec:1400;orp:100;do:20;temp:25;
09:33:39 connected:T armed:F guided:T mode:AUTO.LOITER;lat: 40.9961978441 lon: 29.0661990101;x: 0.0 y: -0.02 z: 0.02;0.04;1.00;roll: -0.000472840241855 pitch: 0.000221150286961 yaw: -0.00126029911917;heading:-19.087509846;circle_lat: 37 circle_lon: 37;ph:7;ec:1400;orp:100;do:20;temp:25;
09:33:39 connected:T armed:F guided:T mode:AUTO.LOITER;lat: 40.9961967551 lon: 29.0662004393;x: 0.0 y: -0.02 z: 0.02;0.04;1.00;roll: -0.000472840241855 pitch: 0.000221150286961 yaw: -0.00126029911917;heading:-19.1450955632;circle_lat: 37 circle_lon: 37;ph:7;ec:1400;orp:100;do:20;temp:25;
09:33:39 connected:T armed:F guided:T mode:AUTO.LOITER;lat: 40.9961974 lon: 29.0661997646;x: 0.0 y: -0.02 z: 0.02;0.04;1.00;roll: -0.000472840241855 pitch: 0.000221150286961 yaw: -0.00126029911917;heading:-19.200531958;circle_lat: 37 circle_lon: 37;ph:7;ec:1400;orp:100;do:20;temp:25;
09:33:39 connected:T armed:F guided:T mode:AUTO.LOITER;lat: 40.9961973307 lon: 29.0661993771;x: 0.0 y: -0.02 z: 0.02;0.04;1.00;roll: -0.000472840241855 pitch: 0.000221150286961 yaw: -0.00126029911917;heading:-19.2556614202;circle_lat: 37 circle_lon: 37;ph:7;ec:1400;orp:100;do:20;temp:25;
09:33:39 connected:T armed:F guided:T mode:AUTO.LOITER;lat: 40.9961973644 lon: 29.0661996869;x: 0.0 y: -0.02 z: 0.02;0.04;1.00;roll: -0.000472840241855 pitch: 0.000221150286961 yaw: -0.00126029911917;heading:-19.3122865798;circle_lat: 37 circle_lon: 37;ph:7;ec:1400;orp:100;do:20;temp:25;
